[{"address":"207 W 96TH ST New York NY ","latLong":{"Lat":40.7945161,"Lng":-73.9710419},"group":"A NEW DAY","wheelchair":false,"mtDate":["Monday","Wednesday"],"start":["3:00 PM","3:00 PM"],"end":["4:00 PM","4:00 PM"],"type":["C","C"],"spinterest":["As Bill Sees It","Living Sober"],"zone":6,"mtlocation":"Holy Name Church"},{"address":"120 W 69TH ST New York NY ","latLong":{"Lat":40.7756982,"Lng":-73.9810333},"group":"A VISION FOR YOU","wheelchair":false,"mtDate":["Friday","Friday"],"start":["7:45 PM","9:00 PM"],"end":["8:45 PM","10:00 PM"],"type":["OD","BB"],"spinterest":["null","null"],"zone":6,"mtlocation":"Christ & St. Stephen''s Church"},{"address":"422 W 57TH ST New York NY ","latLong":{"Lat":40.7682311,"Lng":-73.9868768},"group":"AFTER EIGHT (:i)","wheelchair":false,"mtDate":["Tuesday"],"start":["6:30 PM"],"end":["7:45 PM"],"type":["C"],"spinterest":["null"],"zone":6,"mtlocation":"Trinity Presbyterian Church"},{"address":"164 W 74TH ST New York NY ","latLong":{"Lat":40.7796117,"Lng":-73.9801807},"group":"AFTER EIGHT (:ii)","wheelchair":true,"mtDate":["Thursday"],"start":["6:30 PM"],"end":["7:30 PM"],"type":["C"],"spinterest":["AA Literature"],"zone":6,"mtlocation":"Phoenix House"},{"address":"207 W 96TH ST New York NY ","latLong":{"Lat":40.7945161,"Lng":-73.9710419},"group":"ALTERED ATTITUDES","wheelchair":false,"mtDate":["Friday"],"start":["9:30 PM"],"end":["10:30 PM"],"type":["OD"],"spinterest":["null"],"zone":6,"mtlocation":"Holy Name Church"},{"address":"144 W 90TH ST New York NY ","latLong":{"Lat":40.7898068,"Lng":-73.9723737},"group":"AMSTERDAM","wheelchair":false,"mtDate":["Saturday","Saturday","Monday","Tuesday","Wednesday","Friday"],"start":["1:00 PM","2:30 PM","4:00 PM","4:00 PM","4:00 PM","4:00 PM"],"end":["2:30 PM","4:00 PM","5:30 PM","5:30 PM","5:30 PM","5:30 PM"],"type":["B","O","BB","OD","O","S"],"spinterest":["null","null","null","null","Living Sober","null"],"zone":6,"mtlocation":"St. Gregory''s Church"},{"address":"141 W 73RD ST New York NY ","latLong":{"Lat":40.7789036,"Lng":-73.9799533},"group":"ANSONIA","wheelchair":true,"mtDate":["Monday"],"start":["7:00 PM"],"end":["8:00 PM"],"type":["C"],"spinterest":["null"],"zone":6,"mtlocation":"Hamilton House"},{"address":"4 W 76TH ST New York NY ","latLong":{"Lat":40.7787605,"Lng":-73.9745951},"group":"ATLANTIC WEST STEP & TRADITION","wheelchair":false,"mtDate":["Friday"],"start":["7:00 PM"],"end":["8:00 PM"],"type":["S"],"spinterest":["null"],"zone":6,"mtlocation":"Fourth Universalist Church"},{"address":"221 W 107TH ST New York NY ","latLong":{"Lat":40.8017795,"Lng":-73.9665393},"group":"BLOOMINGDALE","wheelchair":false,"mtDate":["Tuesday","Tuesday"],"start":["6:15 PM","7:30 PM"],"end":["7:15 PM","8:30 PM"],"type":["S","B"],"spinterest":["null","null"],"zone":6,"mtlocation":"Church of the Ascension"},{"address":"207 W 96TH ST New York NY ","latLong":{"Lat":40.7945161,"Lng":-73.9710419},"group":"BROADWAY AT 96TH","wheelchair":false,"mtDate":["Monday","Friday"],"start":["7:30 PM","7:30 PM"],"end":["8:30 PM","8:30 PM"],"type":["BB","O"],"spinterest":["null","null"],"zone":6,"mtlocation":"Holy Name Church"},{"address":"215 W 82ND ST New York NY ","latLong":{"Lat":40.7852818734432,"Lng":-73.9771060064311},"group":"CADILLACS FOR EVERYONE","wheelchair":true,"mtDate":["Thursday"],"start":["7:00 PM"],"end":["8:00 PM"],"type":["OD"],"spinterest":["Men"],"zone":6,"mtlocation":"Holy Trinity Rectory"},{"address":"601 W 114TH ST New York NY ","latLong":{"Lat":40.8069051,"Lng":-73.965058},"group":"CAMPUS CHEER","wheelchair":false,"mtDate":["Tuesday","Thursday"],"start":["12:30 PM","12:30 PM"],"end":["1:30 PM","1:30 PM"],"type":["C","C"],"spinterest":["null","null"],"zone":6,"mtlocation":"Broadway Presbyterian Church"},{"address":"344 AMSTERDAM AVE New York NY ","latLong":{"Lat":40.7815169,"Lng":-73.9797508},"group":"CENTRAL PARK WEST","wheelchair":false,"mtDate":["Tuesday"],"start":["8:15 PM"],"end":["9:30 PM"],"type":["C"],"spinterest":["null"],"zone":6,"mtlocation":"Universalist Church"},{"address":"5 W 63RD ST New York NY ","latLong":{"Lat":40.7708644,"Lng":-73.9806413},"group":"CHELSEA RIVERSIDE","wheelchair":true,"mtDate":["Monday","Monday","Monday"],"start":["7:30 PM","9:00 PM","10:15 PM"],"end":["8:45 PM","10:00 PM","11:15 PM"],"type":["O","B","C"],"spinterest":["null","null","Topic"],"zone":6,"mtlocation":"West Side YMCA at 63rd Street"},{"address":"4 W 76TH ST New York NY ","latLong":{"Lat":40.7787605,"Lng":-73.9745951},"group":"CHOCK FULL OF SOBRIETY","wheelchair":false,"mtDate":["Friday"],"start":["6:30 PM"],"end":["7:30 PM"],"type":["C"],"spinterest":["null"],"zone":6,"mtlocation":"Universalist Church"},{"address":"160 CENTRAL PARK W New York NY ","latLong":{"Lat":40.7787712,"Lng":-73.9743066},"group":"CLASSEN HALL (:II)","wheelchair":false,"mtDate":["Sunday"],"start":["6:00 PM"],"end":["7:00 PM"],"type":["B"],"spinterest":["null"],"zone":6,"mtlocation":"Fourth Universalist Society"},{"address":"152 W 66TH ST New York NY ","latLong":{"Lat":40.7744405,"Lng":-73.9838262},"group":"CLASSEN HALL STEP MEETING( :I )","wheelchair":false,"mtDate":["Sunday"],"start":["6:15 PM"],"end":["7:45 PM"],"type":["S"],"spinterest":["Twelve Steps"],"zone":6,"mtlocation":"Good Shepherd Faith Church"},{"address":"3 W 95TH ST New York NY ","latLong":{"Lat":40.7912379,"Lng":-73.9655109},"group":"COLUMBUS AT FIVE","wheelchair":false,"mtDate":["Saturday","Sunday","Friday"],"start":["5:00 PM","5:00 PM","7:00 PM"],"end":["6:00 PM","6:00 PM","8:00 PM"],"type":["C","C","C"],"spinterest":["Children Welcome","Children Welcome","Topic"],"zone":6,"mtlocation":"Second Presbyterian Church"},{"address":"251 W 80TH ST New York NY ","latLong":{"Lat":40.7848713,"Lng":-73.9800524},"group":"EIGHTIETH STREET BEGINNERS","wheelchair":true,"mtDate":["Friday"],"start":["7:30 PM"],"end":["8:45 PM"],"type":["C"],"spinterest":["null"],"zone":6,"mtlocation":"All Angels Church"},{"address":"111 W 71ST ST New York NY ","latLong":{"Lat":40.7769516,"Lng":-73.9795507},"group":"FAST BREAK","wheelchair":false,"mtDate":["Friday","Monday","Tuesday","Wednesday","Thursday","Friday","Monday","Tuesday","Wednesday","Thursday"],"start":["7:00 AM","7:00 AM","7:00 AM","7:00 AM","7:00 AM","8:15 AM","8:15 AM","8:15 AM","8:15 AM","8:15 AM"],"end":["8:00 AM","8:00 AM","8:00 AM","8:00 AM","8:00 AM","9:15 AM","9:15 AM","9:15 AM","9:15 AM","9:15 AM"],"type":["C","C","C","C","S","C","C","C","C","C"],"spinterest":["null","null","null","null","null","null","null","null","null","null"],"zone":6,"mtlocation":"Hargrave House"},{"address":"5 W 63RD ST New York NY ","latLong":{"Lat":40.7708644,"Lng":-73.9806413},"group":"FAST BREAK WEEKEND","wheelchair":true,"mtDate":["Sunday","Saturday"],"start":["8:00 AM","8:00 AM"],"end":["9:00 AM","9:00 AM"],"type":["C","C"],"spinterest":["null","null"],"zone":6,"mtlocation":"West Side YMCA"},{"address":"5 W 63RD ST New York NY ","latLong":{"Lat":40.7708644,"Lng":-73.9806413},"group":"FIRESIDE(:II)WEEKEND MEETINGS ONLY","wheelchair":false,"mtDate":["Saturday","Sunday","Saturday"],"start":["10:30 AM","12:30 PM","12:30 PM"],"end":["11:30 AM","1:30 PM","1:30 PM"],"type":["S","B","S"],"spinterest":["First Step Workshop","null","null"],"zone":6,"mtlocation":"West Side YMCA"},{"address":"207 W 96TH ST New York NY ","latLong":{"Lat":40.7945161,"Lng":-73.9710419},"group":"FIRST THINGS FIRST","wheelchair":false,"mtDate":["Monday","Wednesday","Saturday","Thursday","Sunday","Tuesday","Friday","Friday","Wednesday","Saturday","Monday","Thursday","Sunday","Tuesday","Friday","Wednesday","Saturday","Monday","Thursday","Sunday","Tuesday","Tuesday","Friday","Wednesday","Saturday","Monday","Thursday","Sunday"],"start":["6:00 AM","6:00 AM","6:00 AM","6:00 AM","6:00 AM","6:00 AM","6:00 AM","7:15 AM","7:15 AM","7:15 AM","7:15 AM","7:15 AM","7:15 AM","7:15 AM","8:45 AM","8:45 AM","8:45 AM","8:45 AM","8:45 AM","8:45 AM","8:45 AM","10:15 AM","10:15 AM","10:15 AM","10:15 AM","10:15 AM","10:15 AM","10:15 AM"],"end":["7:00 AM","7:00 AM","7:00 AM","7:00 AM","7:00 AM","7:00 AM","7:00 AM","8:15 AM","8:15 AM","8:15 AM","8:15 AM","8:15 AM","8:15 AM","8:15 AM","9:45 AM","9:45 AM","9:45 AM","9:45 AM","9:45 AM","9:45 AM","9:45 AM","11:15 AM","11:15 AM","11:15 AM","11:15 AM","11:15 AM","11:15 AM","11:15 AM"],"type":["OD","OD","OD","S","OD","OD","BB","C","C","S","C","C","C","C","B","B","B","B","B","B","B","C","BB","S","S","C","OD","T"],"spinterest":["As Bill Sees It","null","As Bill Sees It","As Bill Sees It","As Bill Sees It","As Bill Sees It","null","null","null","null","null","null","null","null","null","null","null","null","null","null","null","Living Sober","null","null","null","Promises","null","null"],"zone":6,"mtlocation":"Holy Name Church"},{"address":"26 W 84TH ST New York NY ","latLong":{"Lat":40.7844228,"Lng":-73.9716168},"group":"FRIDAY NIGHT STEP","wheelchair":false,"mtDate":["Friday"],"start":["6:30 PM"],"end":["7:45 PM"],"type":["S"],"spinterest":["null"],"zone":6,"mtlocation":"Church of St. Matthew and St. Timothy"},{"address":"200 W 97TH ST New York NY ","latLong":{"Lat":40.7946604892952,"Lng":-73.9699229082063},"group":"GRUPO CAMINO REAL","wheelchair":false,"mtDate":["Sunday","Thursday"],"start":["4:30 PM","7:00 PM"],"end":["5:30 PM","8:00 PM"],"type":["OD","C"],"spinterest":["null","null"],"zone":6,"mtlocation":"Holy Name School"},{"address":"218 W 108TH ST New York NY ","latLong":{"Lat":40.8021037,"Lng":-73.9658778},"group":"GRUPO DULCES 24","wheelchair":true,"mtDate":["Monday","Wednesday","Friday","Sunday"],"start":["7:30 PM","7:30 PM","7:30 PM","7:30 PM"],"end":["8:30 PM","8:30 PM","8:30 PM","8:30 PM"],"type":["OD","C","OD","O"],"spinterest":["null","null","null","null"],"zone":6,"mtlocation":"Grace House"},{"address":"125 W 104TH ST New York NY ","latLong":{"Lat":40.7986785,"Lng":-73.9648897},"group":"GRUPO LUZ DIVINA","wheelchair":true,"mtDate":["Tuesday"],"start":["7:30 PM"],"end":["8:30 PM"],"type":["O"],"spinterest":["null"],"zone":6,"mtlocation":"Iglesia Metodista Grace"},{"address":"141 W 73RD ST New York NY ","latLong":{"Lat":40.7789036,"Lng":-73.9799533},"group":"HARGRAVE","wheelchair":true,"mtDate":["Thursday","Friday","Thursday"],"start":["7:00 PM","7:00 PM","8:15 PM"],"end":["8:00 PM","8:00 PM","9:15 PM"],"type":["B","B","C"],"spinterest":["null","null","null"],"zone":6,"mtlocation":"Hamilton House"},{"address":"236 W 73RD ST New York NY ","latLong":{"Lat":40.7796494,"Lng":-73.982239},"group":"LAMBDA WEST","wheelchair":true,"mtDate":["Saturday","Wednesday","Wednesday","Wednesday"],"start":["6:00 PM","6:00 PM","7:15 PM","8:30 PM"],"end":["7:00 PM","7:00 PM","8:15 PM","9:30 PM"],"type":["S","OD","B","C"],"spinterest":["Gay, Lesbian and Bisexual","Interpreted for the Deaf","Gay, Lesbian and Bisexual","Gay, Lesbian and Bisexual"],"zone":6,"mtlocation":"Rutgers Church"},{"address":"165 W 105TH ST New York NY ","latLong":{"Lat":40.7996866,"Lng":-73.9657282},"group":"MANHATTAN VALLEY","wheelchair":false,"mtDate":["Wednesday"],"start":["7:00 PM"],"end":["8:00 PM"],"type":["B"],"spinterest":["null"],"zone":6,"mtlocation":"West End Presbyterian Church"},{"address":"207 W 96TH ST New York NY ","latLong":{"Lat":40.7945161,"Lng":-73.9710419},"group":"METROPOLIS MEN''S MEETING","wheelchair":false,"mtDate":["Sunday"],"start":["5:45 PM"],"end":["7:00 PM"],"type":["C"],"spinterest":["null"],"zone":6,"mtlocation":"Holy Name Church"},{"address":"207 W 96TH ST New York NY ","latLong":{"Lat":40.7945161,"Lng":-73.9710419},"group":"MID DAY CHEER","wheelchair":false,"mtDate":["Friday","Monday","Tuesday","Wednesday","Thursday"],"start":["1:00 PM","1:00 PM","1:00 PM","1:00 PM","1:00 PM"],"end":["2:00 PM","2:15 PM","2:15 PM","2:15 PM","2:15 PM"],"type":["S","S","BB","OD","C"],"spinterest":["null","Meditation","null","null","Women"],"zone":6,"mtlocation":"Holy Name Church Rectory"},{"address":"2504 BROADWAY New York NY ","latLong":{"Lat":40.7927534,"Lng":-73.972842},"group":"MORNINGSIDE","wheelchair":true,"mtDate":["Saturday","Saturday","Saturday","Saturday"],"start":["6:30 PM","8:00 PM","8:00 PM","9:15 PM"],"end":["7:30 PM","9:00 PM","9:00 PM","10:15 PM"],"type":["B","OD","S","OD"],"spinterest":["null","null","null","null"],"zone":6,"mtlocation":"Advent Lutheran Church"},{"address":"405 W 114TH ST New York NY ","latLong":{"Lat":40.8051126,"Lng":-73.9607974},"group":"MORNINGSIDE HEIGHTS BEGINNERS","wheelchair":true,"mtDate":["Wednesday","Friday"],"start":["6:30 PM","6:30 PM"],"end":["7:30 PM","7:30 PM"],"type":["B","B"],"spinterest":["null","null"],"zone":6,"mtlocation":"Church of Notre Dame"},{"address":"368 W END AVE New York NY ","latLong":{"Lat":40.783225,"Lng":-73.9817572},"group":"NEVER TOO LATE","wheelchair":false,"mtDate":["Tuesday"],"start":["7:30 PM"],"end":["8:30 PM"],"type":["C"],"spinterest":["null"],"zone":6,"mtlocation":"West End Collegiate Church"},{"address":"225 W 99TH ST New York NY ","latLong":{"Lat":40.7964452,"Lng":-73.9694226},"group":"NIGHT LIGHT","wheelchair":false,"mtDate":["Monday"],"start":["6:30 PM"],"end":["7:30 PM"],"type":["S"],"spinterest":["null"],"zone":6,"mtlocation":"St. Michael''s Parish House"},{"address":"251 W 100TH ST New York NY ","latLong":{"Lat":40.7977791,"Lng":-73.9709911},"group":"NIGHT LIGHT BEGINNERS","wheelchair":true,"mtDate":["Thursday"],"start":["6:00 PM"],"end":["7:00 PM"],"type":["B"],"spinterest":["null"],"zone":6,"mtlocation":"Anshe Chesed Synagogue"},{"address":"207 W 96TH ST New York NY ","latLong":{"Lat":40.7945161,"Lng":-73.9710419},"group":"NINETY SIXTH STREET WORKSHOP","wheelchair":false,"mtDate":["Sunday","Monday","Tuesday","Wednesday","Thursday","Saturday","Friday"],"start":["10:00 PM","10:00 PM","10:00 PM","10:00 PM","10:00 PM","10:00 PM","11:00 PM"],"end":["11:00 PM","11:00 PM","11:00 PM","11:00 PM","11:00 PM","11:00 PM","12:00 AM"],"type":["T","BB","S","BB","B","C","C"],"spinterest":["null","null","null","null","null","As Bill Sees It","Promises"],"zone":6,"mtlocation":"Holy Name Church"},{"address":"26 W 84TH ST New York NY ","latLong":{"Lat":40.7844228,"Lng":-73.9716168},"group":"OXFORD(:I)","wheelchair":true,"mtDate":["FromtoMonday","Wednesday","Thursday"],"start":["12:00 AM","7:30 PM","7:30 PM","7:30 PM"],"end":[" ","8:30 PM","8:30 PM","8:30 PM"],"type":["null","null","C","O","BB"],"spinterest":["null","null","Interpreted for the Deaf","Interpreted for the Deaf","null"],"zone":6,"mtlocation":"Church of St. Matthew & St. Timothy"},{"address":"5 W 63RD ST New York NY ","latLong":{"Lat":40.7708644,"Lng":-73.9806413},"group":"PROMISES PROMISES","wheelchair":false,"mtDate":["Saturday"],"start":["6:30 PM"],"end":["7:30 PM"],"type":["C"],"spinterest":["null"],"zone":6,"mtlocation":"West Side YMCA"},{"address":"552 W END AVE New York NY ","latLong":{"Lat":40.78931,"Lng":-73.9773114},"group":"RENEWAL WEST","wheelchair":false,"mtDate":["Sunday"],"start":["7:00 PM"],"end":["8:00 PM"],"type":["B"],"spinterest":["null"],"zone":6,"mtlocation":"St. Ignatius Church"},{"address":"164 W 74 ST New York NY ","latLong":{"Lat":40.7796117,"Lng":-73.9801807},"group":"ROUTES","wheelchair":false,"mtDate":["Saturday","Tuesday"],"start":["6:00 PM","7:00 PM"],"end":["7:00 PM","8:00 PM"],"type":["B","B"],"spinterest":["null","null"],"zone":6,"mtlocation":"Phoenix House"},{"address":"340 W 85TH ST New York NY ","latLong":{"Lat":40.7887343,"Lng":-73.9798639},"group":"RUDE AWAKENING","wheelchair":false,"mtDate":["Wednesday"],"start":["8:30 PM"],"end":["9:30 PM"],"type":["C"],"spinterest":["Living Sober"],"zone":6,"mtlocation":"Volunteers of America"},{"address":"368 W END AVE New York NY ","latLong":{"Lat":40.783225,"Lng":-73.9817572},"group":"SMITHEREENS","wheelchair":false,"mtDate":["Wednesday","Wednesday"],"start":["7:00 PM","8:15 PM"],"end":["8:00 PM","9:15 PM"],"type":["B","S"],"spinterest":["null","null"],"zone":6,"mtlocation":"West End Collegiate Church"},{"address":"152 W 71ST ST New York NY ","latLong":{"Lat":40.7774259,"Lng":-73.9812051},"group":"SOBER STEPPING","wheelchair":false,"mtDate":["Saturday"],"start":["6:30 PM"],"end":["7:30 PM"],"type":["S"],"spinterest":["Promises"],"zone":6,"mtlocation":"Blessed Sacrament Church Rectory"},{"address":"5 W 63RD ST New York NY ","latLong":{"Lat":40.7708644,"Lng":-73.9806413},"group":"SUNDAY MEN''S TOPIC","wheelchair":false,"mtDate":["Sunday"],"start":["10:30 AM"],"end":["11:30 AM"],"type":["C"],"spinterest":["Men"],"zone":6,"mtlocation":"West Side YMCA"},{"address":"131 W 72ND ST New York NY ","latLong":{"Lat":40.7780247,"Lng":-73.9798344},"group":"SUNDAY WEST","wheelchair":false,"mtDate":["Sunday"],"start":["12:00 PM"],"end":["1:00 PM"],"type":["C"],"spinterest":["null"],"zone":6,"mtlocation":null},{"address":"207 W 96TH ST New York NY ","latLong":{"Lat":40.7945161,"Lng":-73.9710419},"group":"TURN IT OVER","wheelchair":false,"mtDate":["Thursday","Tuesday","Tuesday","Thursday","Friday"],"start":["3:30 PM","3:30 PM","4:30 PM","4:30 PM","4:30 PM"],"end":["4:30 PM","4:30 PM","5:30 PM","5:30 PM","5:30 PM"],"type":["B","B","C","C","S"],"spinterest":["null","null","null","null","null"],"zone":6,"mtlocation":"Holy Name Church"},{"address":"152 W 71ST ST New York NY ","latLong":{"Lat":40.7774259,"Lng":-73.9812051},"group":"WAY OF LIFE","wheelchair":false,"mtDate":["Saturday","Saturday"],"start":["10:00 AM","11:15 AM"],"end":["11:00 AM","12:15 PM"],"type":["C","C"],"spinterest":["As Bill Sees It","null"],"zone":6,"mtlocation":"Blessed Sacrament Church Rectory"},{"address":"30 W 68TH ST New York NY ","latLong":{"Lat":40.7740859,"Lng":-73.979107},"group":"WE AGNOSTICS OF NYC","wheelchair":true,"mtDate":["Thursday"],"start":["6:15 PM"],"end":["7:15 PM"],"type":["C"],"spinterest":["Agnostic"],"zone":6,"mtlocation":"Stephen Wise Free Synagogue"},{"address":"207 W 96TH ST New York NY ","latLong":{"Lat":40.7945161,"Lng":-73.9710419},"group":"WE ARE NOT DOCTORS (WESTSIDE)","wheelchair":false,"mtDate":["Wednesday"],"start":["4:45 PM"],"end":["5:45 PM"],"type":["OD"],"spinterest":["Medication"],"zone":6,"mtlocation":"Holy Name Church"},{"address":"263 W 86TH ST New York NY ","latLong":{"Lat":40.7887918,"Lng":-73.9772649},"group":"WEST END","wheelchair":true,"mtDate":["Thursday","Thursday","Tuesday","Tuesday"],"start":["7:00 PM","7:00 PM","7:00 PM","7:00 PM"],"end":["8:00 PM","8:00 PM","8:00 PM","8:00 PM"],"type":["B","S","B","BB"],"spinterest":["null","null","null","null"],"zone":6,"mtlocation":"Church of St. Paul & St. Andrew"},{"address":"306 W 102ND ST New York NY ","latLong":{"Lat":40.7992334,"Lng":-73.9710638},"group":"WESTSIDE 11th STEP MEDITATION WORKSHOP","wheelchair":false,"mtDate":["Wednesday"],"start":["7:00 PM"],"end":["8:00 PM"],"type":["C"],"spinterest":["null"],"zone":6,"mtlocation":"Addiction Institute"},{"address":"152 W 71ST ST New York NY ","latLong":{"Lat":40.7774259,"Lng":-73.9812051},"group":"WESTSIDE STEP","wheelchair":false,"mtDate":["Friday"],"start":["7:00 PM"],"end":["8:00 PM"],"type":["S"],"spinterest":["null"],"zone":6,"mtlocation":"Blessed Sacrament Church Rectory"},{"address":"26 W 84TH ST New York NY ","latLong":{"Lat":40.7844228,"Lng":-73.9716168},"group":"WESTSIDE YOUNG PEOPLE","wheelchair":false,"mtDate":["Saturday"],"start":["7:00 PM"],"end":["8:00 PM"],"type":["B"],"spinterest":["Young People"],"zone":6,"mtlocation":"Church of St.Matthew & St. Timothy"},{"address":"595 COLUMBUS AVE New York NY ","latLong":{"Lat":40.7879892,"Lng":-73.9707609},"group":"WITHOUT A PRAYER","wheelchair":true,"mtDate":["Saturday"],"start":["5:00 PM"],"end":["6:00 PM"],"type":["OD"],"spinterest":["Agnostic"],"zone":6,"mtlocation":"Goddard Riverside Community Center"},{"address":"306 W 102ND ST New York NY ","latLong":{"Lat":40.7992334,"Lng":-73.9710638},"group":"WOMEN LIVING SOBER","wheelchair":false,"mtDate":["Wednesday","Saturday"],"start":["9:00 AM","9:00 AM"],"end":["10:00 AM","10:00 AM"],"type":["C","C"],"spinterest":["Women","Women"],"zone":6,"mtlocation":"Trinity Halfway House"},{"address":"213 W 82ND ST New York NY ","latLong":{"Lat":40.7855603,"Lng":-73.9776992},"group":"WOMEN WEST AA","wheelchair":true,"mtDate":["Friday"],"start":["7:00 PM"],"end":["8:00 PM"],"type":["C"],"spinterest":["Women"],"zone":6,"mtlocation":"Holy Trinity Church"},{"address":"152 W 71ST ST New York NY ","latLong":{"Lat":40.7774259,"Lng":-73.9812051},"group":"WOMEN''S BEGINNING LITERATURE","wheelchair":false,"mtDate":["Thursday","Monday","Wednesday"],"start":["12:00 PM","12:00 PM","12:30 PM"],"end":["1:00 PM","1:15 PM","1:30 PM"],"type":["C","C","B"],"spinterest":["Women","Women","Women"],"zone":6,"mtlocation":"Blessed Sacrament (Rectory)"},{"address":"152 W 71ST ST New York NY ","latLong":{"Lat":40.7774259,"Lng":-73.9812051},"group":"WOMEN''S ELEVENTH STEP MEETING","wheelchair":true,"mtDate":["Monday"],"start":["12:00 PM"],"end":["1:00 PM"],"type":["OD"],"spinterest":["Women"],"zone":6,"mtlocation":null},{"address":"152 W 71ST ST New York NY ","latLong":{"Lat":40.7774259,"Lng":-73.9812051},"group":"WOMEN''S TELL IT LIKE IT IS","wheelchair":true,"mtDate":["Monday"],"start":["12:00 PM"],"end":["1:15 PM"],"type":["C"],"spinterest":["Women"],"zone":6,"mtlocation":"Blessed Sacrament (Rectory)"},{"address":"160 CENTRAL PARK W New York NY ","latLong":{"Lat":40.7787712,"Lng":-73.9743066},"group":"WOMEN''S WESTSIDE TOPIC","wheelchair":false,"mtDate":["Tuesday"],"start":["6:30 PM"],"end":["7:30 PM"],"type":["C"],"spinterest":["Women"],"zone":6,"mtlocation":"Universalist Church"},{"address":"207 W 96TH ST New York NY ","latLong":{"Lat":40.7945161,"Lng":-73.9710419},"group":"WRITING SOBER","wheelchair":false,"mtDate":["Wednesday"],"start":["6:00 PM"],"end":["7:00 PM"],"type":["C"],"spinterest":["Special Purpose Groups"],"zone":6,"mtlocation":"Holy Name Church"}]