[{"address":"701 W 168TH ST New York NY ","latLong":{"Lat":40.8424566,"Lng":-73.9424508}},{"address":"715 W 179TH ST New York NY ","latLong":{"Lat":40.8492702,"Lng":-73.9382266}},{"address":"715 W 179TH ST New York NY ","latLong":{"Lat":40.8492702,"Lng":-73.9382266}},{"address":"431 W 204TH ST New York NY ","latLong":{"Lat":40.8620966104922,"Lng":-73.9190004613749}},{"address":"550 W 155TH ST New York NY ","latLong":{"Lat":40.8321452,"Lng":-73.9448547}},{"address":"557 W 156TH ST New York NY ","latLong":{"Lat":40.8333254,"Lng":-73.9446563}},{"address":"35 THAYER ST New York NY ","latLong":{"Lat":40.8626147,"Lng":-73.9263819}},{"address":"715 W 179TH ST New York NY ","latLong":{"Lat":40.8492702,"Lng":-73.9382266}},{"address":"502 W 165TH ST New York NY ","latLong":{"Lat":40.8378476619065,"Lng":-73.9384773058967}},{"address":"91 ARDEN ST New York NY ","latLong":{"Lat":40.8639073,"Lng":-73.9282532}},{"address":"20 CUMMING ST New York NY ","latLong":{"Lat":40.8664723,"Lng":-73.9264521}},{"address":"84 VERMILYEA AVE New York NY ","latLong":{"Lat":40.86596,"Lng":-73.9231447}},{"address":"620 ISHAM ST New York NY ","latLong":{"Lat":40.8692449,"Lng":-73.9206611}},{"address":"2005 AMSTERDAM AVE New York NY ","latLong":{"Lat":40.8342553,"Lng":-73.9407968}},{"address":"178 BENNETT AVE New York NY ","latLong":{"Lat":40.8560069,"Lng":-73.9342762}},{"address":"178 BENNETT AVE New York NY ","latLong":{"Lat":40.8560069,"Lng":-73.9342762}},{"address":"91 ARDEN ST New York NY ","latLong":{"Lat":40.8639073,"Lng":-73.9282532}},{"address":"20 CUMMINGS ST New York NY ","latLong":{"Lat":40.8664723,"Lng":-73.9264521}},{"address":"715 W 179TH ST New York NY ","latLong":{"Lat":40.8492702,"Lng":-73.9382266}},{"address":"178 BENNETT AVE New York NY ","latLong":{"Lat":40.8560069,"Lng":-73.9342762}},{"address":"178 BENNETT AVE New York NY ","latLong":{"Lat":40.8560069,"Lng":-73.9342762}},{"address":"178 BENNETT AVE New York NY ","latLong":{"Lat":40.8560069,"Lng":-73.9342762}}]