[{"streetAddress":"20 CARDINAL HAYES PL New York NY ","lat":"40.7132514","long":"-74.002398","mtlocation":"St Andrews Church","day":["Thursday","Tuesday"],"start":["7:00 AM","7:00 AM"],"end":["8:00 AM","8:00 AM"],"group":"A DESIGN FOR LIVING","type":["OD","B"],"spinterest":["null","null"],"wheelchair":false,"zone":1},{"streetAddress":"20 CARDINAL HAYES PL New York NY ","lat":"40.7132514","long":"-74.002398","mtlocation":"St. Andrew''s Church","start":["12:15 PM","12:15 PM","12:15 PM","12:15 PM"],"end":["1:15 PM","1:15 PM","1:15 PM","1:15 PM"],"group":"CHAMBERS STREET","type":["OD","S","B","BB"],"spinterest":["null","null","null","null"],"wheelchair":false,"day":["Monday","Wednesday","Thursday","Friday"],"zone":1},{"streetAddress":"29 MOTT ST New York NY ","lat":"40.7147965","long":"-73.9990363","mtlocation":"Church of the Transfiguration","start":["6:30 PM"],"end":["7:30 PM"],"group":"CHINATOWN","type":["C"],"spinterest":["null"],"wheelchair":false,"day":["Tuesday"],"zone":1},{"streetAddress":"49 FULTON ST New York NY ","lat":"40.7080393","long":"-74.0042361","mtlocation":"St. Margaret''s Residence","start":["7:00 PM"],"end":["8:00 PM"],"group":"DOWNTOWN","type":["OD"],"spinterest":["null"],"wheelchair":true,"day":["Monday"],"zone":1},{"streetAddress":"44 JOHN ST New York NY ","lat":"40.7091732","long":"-74.0080677","mtlocation":null,"start":["12:15 PM","12:15 PM","12:15 PM","1:30 PM","1:30 PM"],"end":["1:15 PM","1:15 PM","1:15 PM","2:30 PM","2:30 PM"],"group":"EXCHANGE VIEWS @ JOHN STREET CHURCH","type":["OD","S","OD","B","S"],"spinterest":["null","null","null","Living Sober","null"],"wheelchair":false,"day":["Monday","Tuesday","Thursday","Monday","Thursday"],"zone":1},{"streetAddress":"49 FULTON ST New York NY ","lat":"40.7080393","long":"-74.0042361","mtlocation":null,"start":["6:30 AM","6:30 AM","6:30 AM","6:30 AM","6:30 AM","7:30 AM","7:30 AM","7:30 AM","7:30 AM","7:30 AM","7:45 AM","7:45 AM","5:30 PM"],"end":["7:30 AM","7:30 AM","7:30 AM","7:30 AM","7:30 AM","8:30 AM","8:30 AM","8:30 AM","8:30 AM","8:30 AM","8:45 AM","8:45 AM","6:30 PM"],"group":"EXCHANGE VIEWS @ ST. MARGARET''S HOUSE","type":["C","C","C","S","BB","S","OD","OD","OD","B","null","null","B"],"spinterest":["Topic","null","Topic","null","null","null","null","null","null","null","null","null","null"],"wheelchair":true,"day":["Monday","Tuesday","Wednesday","Thursday","Friday","Monday","Tuesday","Wednesday","Thursday","Friday","Sunday","Saturday","Friday"],"zone":1},{"streetAddress":"20 CARDINAL HAYES PL New York NY ","lat":"40.7132514","long":"-74.002398","mtlocation":"St. Andrew''s Church","start":["6:00 PM"],"end":["7:00 PM"],"group":"FRIDAY DOWNTOWN","type":["OD"],"spinterest":["null"],"wheelchair":true,"day":["Friday"],"zone":1},{"streetAddress":"22 BARCLAY ST New York NY ","lat":"40.7125016","long":"-74.0094639","mtlocation":"St. Peter''s Church","start":["6:00 PM"],"end":["7:00 PM"],"group":"GATEWAY","type":["BB"],"spinterest":["null"],"wheelchair":false,"day":["Sunday"],"zone":1},{"streetAddress":"20 CARDINAL HAYES PL New York NY ","lat":"40.7132514","long":"-74.002398","mtlocation":"St. Andrew''s Church","start":["1:15 PM","1:15 PM","1:15 PM","1:15 PM","1:15 PM"],"end":["2:15 PM","2:15 PM","2:15 PM","2:15 PM","2:15 PM"],"group":"PASSING THE BAR","type":["B","C","C","S","BB"],"spinterest":["null","null","Promises","null","null"],"wheelchair":true,"day":["Monday","Tuesday","Wednesday","Thursday","Friday"],"zone":1},{"streetAddress":"22 BARCLAY ST New York NY ","lat":"40.7125016","long":"-74.0094639","mtlocation":"Saint Peter''s Church","start":["7:30 PM"],"end":["8:45 PM"],"group":"S.O.B.E.R.","type":["OD"],"spinterest":["null"],"wheelchair":false,"day":["Thursday"],"zone":1},{"streetAddress":"283 W BROADWAY New York NY ","lat":"40.7208165","long":"-74.0048523","mtlocation":"Hazelden Tribeca","start":["7:00 PM"],"end":["8:00 PM"],"group":"SANE AND SOBER","type":["C"],"spinterest":["Mental Health Issues in Sobriety"],"wheelchair":true,"day":["Wednesday"],"zone":1},{"streetAddress":"125 BARCLAY ST New York NY ","lat":"40.7143477","long":"-74.0130151","mtlocation":"Municipal Union Bldg DC 37","start":["2:00 PM"],"end":["3:15 PM"],"group":"SATURDAY AFTERNOON DISCUSSION","type":["OD"],"spinterest":["null"],"wheelchair":false,"day":["Saturday"],"zone":1},{"streetAddress":"49 FULTON ST New York NY ","lat":"40.7080393","long":"-74.0042361","mtlocation":"St. Margaret''s House","start":["6:00 PM"],"end":["7:00 PM"],"group":"SEAMEN''S GROUP","type":["S"],"spinterest":["null"],"wheelchair":true,"day":["Tuesday"],"zone":1},{"streetAddress":"49 FULTON ST New York NY ","lat":"40.7080393","long":"-74.0042361","mtlocation":"St. Margaret''s House","start":["12:15 PM","12:15 PM","12:15 PM","12:15 PM","12:15 PM"],"end":["1:15 PM","1:15 PM","1:15 PM","1:15 PM","1:15 PM"],"group":"SEAPORT","type":["C","S","S","BB","B"],"spinterest":["null","null","Meditation","null","null"],"wheelchair":true,"day":["Thursday","Friday","Monday","Wednesday","Tuesday"],"zone":1},{"streetAddress":"20 CARDINAL HAYES PL New York NY ","lat":"40.7132514","long":"-74.002398","mtlocation":"Church of Saint Andrew","start":["5:30 PM"],"end":["6:30 PM"],"group":"TOWER","type":["OD"],"spinterest":["null"],"wheelchair":false,"day":["Wednesday"],"zone":1},{"streetAddress":"283 W BROADWAY New York NY ","lat":"40.7208165","long":"-74.0048523","mtlocation":"Tribeca 12 Building","start":["11:00 AM","12:30 PM","6:30 PM","6:30 PM"],"end":["12:00 PM","1:30 PM","7:30 PM","7:30 PM"],"group":"TRIANGLE GROUP","type":["C","BB","C","C"],"spinterest":["Meditation","null","null","null"],"wheelchair":true,"day":["Sunday","Friday","Monday","Thursday"],"zone":1},{"streetAddress":"49 FULTON ST New York NY ","lat":"40.7080393","long":"-74.0042361","mtlocation":null,"start":["7:30 PM","7:30 PM","7:30 PM","7:30 PM"],"end":["8:30 PM","8:30 PM","8:30 PM","8:30 PM"],"group":"TRIBECA GROUP @ ST. MARGARET''S HOUSE","type":["S","OD","BB","B"],"spinterest":["null","null","null","null"],"wheelchair":true,"day":["Friday","Saturday","Tuesday","Thursday"],"zone":1},{"streetAddress":"22 BARCLAY ST New York NY ","lat":"40.7125016","long":"-74.0094639","mtlocation":"St. Peter''s Church","start":["7:45 PM","8:00 PM"],"end":["8:45 PM","9:00 PM"],"group":"TRIBECA GROUP @ ST. PETER''S CHURCH","type":["S","OD"],"spinterest":["null","null"],"wheelchair":false,"day":["Monday","Wednesday"],"zone":1},{"streetAddress":"20 CARDINAL HAYES PL New York NY ","lat":"40.7132514","long":"-74.002398","mtlocation":"St. Andrew''s Church","start":["1:15 PM"],"end":["2:15 PM"],"group":"WOMEN''S DOWNTOWN AA STEP MEETING","type":["S"],"spinterest":["null"],"wheelchair":false,"day":["Wednesday"],"zone":1},{"streetAddress":"283 W BROADWAY New York NY ","lat":"40.7208165","long":"-74.0048523","mtlocation":"Hazelden Center","start":["8:30 PM"],"end":["9:30 PM"],"group":"YOUNG PEOPLE''S DIVERSITY","type":["C"],"spinterest":["Gay, Lesbian and Bisexual"],"wheelchair":false,"day":["Wednesday"],"zone":1},{"streetAddress":"283 W BROADWAY New York NY ","lat":"40.7208165","long":"-74.0048523","mtlocation":"Hazelden Center","start":["7:45 PM"],"end":["8:45 PM"],"group":"YOUNG PEOPLE''S STEP","type":["C"],"spinterest":["Young People"],"wheelchair":true,"day":["Tuesday"],"zone":1},{"streetAddress":"283 W BROADWAY New York NY ","lat":"40.7208165","long":"-74.0048523","mtlocation":"Hazelden Center","start":["7:00 PM"],"end":["8:15 PM"],"group":"YOUTH ENJOYING SOBRIETY (Y.E.S.)","type":["B"],"spinterest":["Young People"],"wheelchair":true,"day":["Saturday"],"zone":1}]