[{
  "streetAddress": "252 W 46TH ST New York NY ",
  "lat": "40.7593831",
  "long": "-73.9872329",
  "mtlocation": "46th Street Club House",
  "day": ["Sunday", "Monday", "Tuesday", "Wednesday", "Thursday", "Friday", "Saturday"],
  "start": ["4:00 PM", "4:00 PM", "4:00 PM", "4:00 PM", "4:00 PM", "4:00 PM", "4:00 PM"],
  "end": ["5:00 PM", "5:00 PM", "5:00 PM", "5:00 PM", "5:00 PM", "5:00 PM", "5:00 PM"],
  "group": "4 THE GRACE",
  "type": ["BB", "BB", "BB", "BB", "BB", "BB", "BB"],
  "spinterest": ["null", "null", "Living Sober", "null", "null", "null", "null"],
  "wheelchair": false,
  "zone": 4
}, {
  "streetAddress": "303 W 42ND ST New York NY ",
  "lat": "40.7575385",
  "long": "-73.9901368",
  "mtlocation": null,
  "start": ["9:15 PM", "9:15 PM", "9:15 PM", "9:15 PM", "9:15 PM", "9:15 PM", "9:15 PM"],
  "end": ["10:15 PM", "10:15 PM", "10:15 PM", "10:15 PM", "10:15 PM", "10:15 PM", "10:30 PM"],
  "group": "42nd AT 9:00pm",
  "type": ["BB", "C", "S", "S", "C", "OD", "S"],
  "spinterest": ["null", "As Bill Sees It", "null", "null", "null", "Beginners Workshop", "Meditation"],
  "wheelchair": false,
  "day": ["Monday", "Wednesday", "Thursday", "Friday", "Saturday", "Sunday", "Tuesday"],
  "zone": 4
}, {
  "streetAddress": "303 W 42ND ST New York NY ",
  "lat": "40.7575385",
  "long": "-73.9901368",
  "mtlocation": null,
  "start": ["8:00 AM", "8:00 AM", "8:00 AM", "8:00 AM", "8:00 AM", "8:00 AM", "8:00 AM"],
  "end": ["9:00 AM", "9:00 AM", "9:00 AM", "9:00 AM", "9:00 AM", "9:00 AM", "9:00 AM"],
  "group": "A NEW FREEDOM",
  "type": ["OD", "C", "T", "OD", "S", "S", "BB"],
  "spinterest": ["null", "Daily Reflections", "null", "Living Sober", "null", "null", "null"],
  "wheelchair": false,
  "day": ["Wednesday", "Thursday", "Friday", "Saturday", "Sunday", "Monday", "Tuesday"],
  "zone": 4
}, {
  "streetAddress": "305 7TH AVE New York NY ",
  "lat": "40.7467107",
  "long": "-73.9935208",
  "mtlocation": "S.A.G.E.",
  "start": ["8:00 PM"],
  "end": ["9:00 PM"],
  "group": "ABINGDON SQUARE IN CHELSEA",
  "type": ["OD"],
  "spinterest": ["null"],
  "wheelchair": true,
  "day": ["Wednesday"],
  "zone": 4
}, {
  "streetAddress": "1 W 53RD ST New York NY ",
  "lat": "40.7608523",
  "long": "-73.9765938",
  "mtlocation": "Saint Thomas Church",
  "start": ["7:00 PM"],
  "end": ["8:00 PM"],
  "group": "ADVENTURES IN SOBRIETY",
  "type": ["O"],
  "spinterest": ["Gay, Lesbian and Bisexual"],
  "wheelchair": true,
  "day": ["Friday"],
  "zone": 4
}, {
  "streetAddress": "303 W 42ND ST New York NY ",
  "lat": "40.7575385",
  "long": "-73.9901368",
  "mtlocation": null,
  "start": ["12:00 PM", "12:00 PM", "12:00 PM", "12:00 PM", "12:00 PM", "12:00 PM", "12:00 PM", "2:00 PM", "2:30 PM", "2:30 PM", "2:30 PM", "2:30 PM", "2:30 PM", "2:30 PM", "6:15 PM", "6:15 PM", "6:15 PM", "6:15 PM", "6:15 PM", "6:15 PM", "6:15 PM", "8:00 PM", "8:00 PM", "8:00 PM", "8:00 PM", "8:00 PM", "8:00 PM"],
  "end": ["1:00 PM", "1:00 PM", "1:00 PM", "1:00 PM", "1:00 PM", "1:00 PM", "1:00 PM", "3:00 PM", "3:30 PM", "3:30 PM", "3:30 PM", "3:30 PM", "3:30 PM", "3:30 PM", "7:15 PM", "7:15 PM", "7:15 PM", "7:15 PM", "7:15 PM", "7:15 PM", "7:15 PM", "9:00 PM", "9:00 PM", "9:00 PM", "9:00 PM", "9:00 PM", "9:00 PM"],
  "group": "ALANON HOUSE (AA Meetings Only)",
  "type": ["C", "C", "B", "C", "C", "C", "C", "C", "C", "C", "C", "C", "C", "C", "C", "C", "S", "C", "C", "C", "C", "C", "C", "C", "C", "C", "C"],
  "spinterest": ["null", "null", "null", "null", "null", "null", "null", "Women", "null", "null", "null", "null", "null", "null", "null", "null", "null", "null", "null", "null", "null", "null", "null", "null", "null", "null", "null"],
  "wheelchair": false,
  "day": ["Monday", "Thursday", "Saturday", "Tuesday", "Sunday", "Wednesday", "Friday", "Sunday", "Monday", "Saturday", "Thursday", "Tuesday", "Wednesday", "Friday", "Monday", "Saturday", "Thursday", "Tuesday", "Sunday", "Wednesday", "Friday", "Friday", "Monday", "Saturday", "Thursday", "Sunday", "Wednesday"],
  "zone": 4
}, {
  "streetAddress": "133 W 46TH ST New York NY ",
  "lat": "40.6589343",
  "long": "-73.9348705",
  "mtlocation": "St. Mary the Virgin Church",
  "start": ["7:30 AM", "7:30 AM", "7:30 AM", "7:30 AM", "7:30 AM"],
  "end": ["8:30 AM", "8:30 AM", "8:30 AM", "8:30 AM", "8:30 AM"],
  "group": "AMAZING GRACE",
  "type": ["C", "C", "C", "S", "C"],
  "spinterest": ["null", "null", "null", "null", "null"],
  "wheelchair": false,
  "day": ["Monday", "Tuesday", "Wednesday", "Thursday", "Friday"],
  "zone": 4
}, {
  "streetAddress": "441 W 26TH ST New York NY ",
  "lat": "40.7495486",
  "long": "-74.0015106",
  "mtlocation": "Hudson Guild",
  "start": ["3:00 PM"],
  "end": ["4:00 PM"],
  "group": "ANNEX (:I)",
  "type": ["OD"],
  "spinterest": ["null"],
  "wheelchair": true,
  "day": ["Saturday"],
  "zone": 4
}, {
  "streetAddress": "446 W 33RD ST New York NY ",
  "lat": "40.753496",
  "long": "-73.9989428",
  "mtlocation": "GMHC",
  "start": ["8:00 PM"],
  "end": ["9:00 PM"],
  "group": "ANNEX(:II)",
  "type": ["O"],
  "spinterest": ["Gay, Lesbian and Bisexual"],
  "wheelchair": true,
  "day": ["Tuesday"],
  "zone": 4
}, {
  "streetAddress": "252 W 46TH ST New York NY ",
  "lat": "40.7593831",
  "long": "-73.9872329",
  "mtlocation": "46th Street Clubhouse",
  "start": ["9:15 PM"],
  "end": ["10:15 PM"],
  "group": "ARTISTS IN RECOVERY",
  "type": ["C"],
  "spinterest": ["Special Purpose Groups"],
  "wheelchair": false,
  "day": ["Tuesday"],
  "zone": 4
}, {
  "streetAddress": "252 W 46TH ST New York NY ",
  "lat": "40.7593831",
  "long": "-73.9872329",
  "mtlocation": "46th Street Club House",
  "start": ["1:30 PM", "1:30 PM", "1:30 PM", "1:30 PM", "1:30 PM", "1:30 PM"],
  "end": ["2:30 PM", "2:30 PM", "2:30 PM", "2:30 PM", "2:30 PM", "2:30 PM"],
  "group": "BEGINNERS",
  "type": ["B", "B", "B", "B", "B", "B"],
  "spinterest": ["Living Sober", "Living Sober", "Living Sober", "Living Sober", "Living Sober", "Living Sober"],
  "wheelchair": false,
  "day": ["Monday", "Tuesday", "Wednesday", "Thursday", "Friday", "Saturday"],
  "zone": 4
}, {
  "streetAddress": "252 W 46TH ST New York NY ",
  "lat": "40.7593831",
  "long": "-73.9872329",
  "mtlocation": "46th Street Club House",
  "start": ["2:45 PM", "2:45 PM", "2:45 PM", "2:45 PM", "2:45 PM", "2:45 PM", "2:45 PM"],
  "end": ["3:45 PM", "3:45 PM", "3:45 PM", "3:45 PM", "3:45 PM", "3:45 PM", "3:45 PM"],
  "group": "BEGINNERS",
  "type": ["B", "B", "B", "B", "B", "B", "B"],
  "spinterest": ["null", "null", "null", "null", "null", "null", "null"],
  "wheelchair": false,
  "day": ["Sunday", "Monday", "Tuesday", "Wednesday", "Thursday", "Friday", "Saturday"],
  "zone": 4
}, {
  "streetAddress": "339 W 47TH ST New York NY ",
  "lat": "40.7612077",
  "long": "-73.9891128",
  "mtlocation": "The Actor''s Temple",
  "start": ["5:00 PM"],
  "end": ["6:00 PM"],
  "group": "BETWEEN SHOWS",
  "type": ["C"],
  "spinterest": ["null"],
  "wheelchair": false,
  "day": ["Wednesday"],
  "zone": 4
}, {
  "streetAddress": "303 W 42ND ST New York NY ",
  "lat": "40.7575385",
  "long": "-73.9901368",
  "mtlocation": null,
  "start": ["4:30 PM", "4:30 PM", "4:30 PM", "4:30 PM", "4:30 PM", "4:30 PM"],
  "end": ["5:30 AM", "4:30 PM", "5:30 PM", "5:30 PM", "5:30 PM", "5:30 PM"],
  "group": "BLUEPRINT FOR LIVING",
  "type": ["null", "null", "BB", "null", "null", "null", "null", "S", "null", "null"],
  "spinterest": ["null", "Living Sober", "null", "null", "Meditation", "null", "As Bill Sees It", "null", "null", "Came To Believe"],
  "wheelchair": false,
  "day": ["Friday", "Tuesday", "Wednesday", "Thursday", "Saturday", "Monday"],
  "zone": 4
}, {
  "streetAddress": "139 W 31ST ST New York NY ",
  "lat": "40.647412",
  "long": "-73.9480599",
  "mtlocation": "St. Francis of Assisi Education Center",
  "start": ["12:00 PM", "12:00 PM", "12:00 PM"],
  "end": ["1:00 PM", "1:00 PM", "1:00 PM"],
  "group": "BOOKSHOP AT NOON",
  "type": ["C", "C", "C"],
  "spinterest": ["null", "null", "null"],
  "wheelchair": false,
  "day": ["Monday", "Wednesday", "Friday"],
  "zone": 4
}, {
  "streetAddress": "422 W 57TH ST New York NY ",
  "lat": "40.7682311",
  "long": "-73.9868768",
  "mtlocation": "Trinity Presbyterian Church",
  "start": ["5:00 PM", "6:00 PM"],
  "end": ["5:45 PM", "7:00 PM"],
  "group": "CLEAN AND DRY",
  "type": ["B", "OD"],
  "spinterest": ["null", "null"],
  "wheelchair": false,
  "day": ["Sunday", "Sunday"],
  "zone": 4
}, {
  "streetAddress": "211 W 30TH ST New York NY ",
  "lat": "40.7486793956479",
  "long": "-73.9927286472649",
  "mtlocation": "St. John''s Hall",
  "start": ["6:00 PM", "6:00 PM"],
  "end": ["7:00 PM", "7:00 PM"],
  "group": "COMMUTERS SPECIAL",
  "type": ["C", "S"],
  "spinterest": ["null", "null"],
  "wheelchair": false,
  "day": ["Wednesday", "Monday"],
  "zone": 4
}, {
  "streetAddress": "252 W 46TH ST New York NY ",
  "lat": "40.7593831",
  "long": "-73.9872329",
  "mtlocation": "46th Street Club House",
  "start": ["12:00 PM"],
  "end": ["1:00 PM"],
  "group": "D.I.V.A.(Divinely Inspired Vivacious Alcoholics)",
  "type": ["C"],
  "spinterest": ["Women"],
  "wheelchair": false,
  "day": ["Saturday"],
  "zone": 4
}, {
  "streetAddress": "1 W 53RD ST New York NY ",
  "lat": "40.7608523",
  "long": "-73.9765938",
  "mtlocation": "St. Thomas Church",
  "start": ["10:00 AM"],
  "end": ["11:00 AM"],
  "group": "FIFTH AVENUE STEP",
  "type": ["S"],
  "spinterest": ["null"],
  "wheelchair": true,
  "day": ["Saturday"],
  "zone": 4
}, {
  "streetAddress": "422 W 57TH ST New York NY ",
  "lat": "40.7682311",
  "long": "-73.9868768",
  "mtlocation": "Trinity Presbyterian Church",
  "start": ["12:00 PM", "12:00 PM", "12:00 PM", "12:00 PM", "12:00 PM", "12:30 PM", "12:30 PM", "12:30 PM", "12:30 PM", "12:30 PM"],
  "end": ["1:00 PM", "1:00 PM", "1:00 PM", "1:00 PM", "1:00 PM", "1:30 PM", "1:30 PM", "1:30 PM", "1:30 PM", "1:30 PM"],
  "group": "FIRESIDE(:I)WEEKDAY MEETINGS ONLY",
  "type": ["B", "B", "B", "B", "B", "BB", "S", "OD", "OD", "OD"],
  "spinterest": ["null", "null", "null", "null", "null", "null", "null", "null", "null", "null"],
  "wheelchair": false,
  "day": ["Wednesday", "Thursday", "Friday", "Monday", "Tuesday", "Wednesday", "Thursday", "Friday", "Monday", "Tuesday"],
  "zone": 4
}, {
  "streetAddress": "7 W 55TH ST New York NY ",
  "lat": "40.7618823",
  "long": "-73.9751297",
  "mtlocation": "Fifth Av Presbyterian Church",
  "start": ["12:30 PM", "12:30 PM", "12:30 PM", "12:30 PM", "12:30 PM", "12:30 PM", "12:30 PM", "12:30 PM"],
  "end": ["1:30 PM", "1:30 PM", "1:30 PM", "1:30 PM", "1:30 PM", "1:30 PM", "1:30 PM", "1:30 PM"],
  "group": "FOGLIFTERS FIFTH AVENUE",
  "type": ["B", "S", "B", "OD", "B", "OD", "B", "OD"],
  "spinterest": [  "null", "null", "null", "null", "null", "null", "null", "null"],
  "wheelchair": true,
  "day": [ "Wednesday", "Wednesday", "Thursday", "Thursday", "Monday", "Monday", "Tuesday", "Tuesday"],
  "zone": 4
}, {
  "streetAddress": "252 W 46TH ST New York NY ",
  "lat": "40.7593831",
  "long": "-73.9872329",
  "mtlocation": "46th Street Club House",
  "start": ["10:30 PM", "10:30 PM", "10:30 PM", "10:30 PM", "10:30 PM", "10:30 PM", "10:30 PM"],
  "end": ["11:30 PM", "11:30 PM", "11:30 PM", "11:30 PM", "11:30 PM", "11:30 PM", "11:30 PM"],
  "group": "FORTY FIVE SOLUTIONS",
  "type": ["C", "C", "C", "C", "C", "C", "C"],
  "spinterest": ["null", "null", "null", "null", "null", "null", "null"],
  "wheelchair": false,
  "day": ["Saturday", "Sunday", "Monday", "Tuesday", "Wednesday", "Thursday", "Friday"],
  "zone": 4
}, {
  "streetAddress": "729 7TH AVE New York NY ",
  "lat": "40.7601119",
  "long": "-73.9837538",
  "mtlocation": "The Actors Fund of America",
  "start": ["5:30 PM"],
  "end": ["6:30 PM"],
  "group": "GREEN ROOM",
  "type": ["C"],
  "spinterest": ["Special Purpose Groups"],
  "wheelchair": true,
  "day": ["Thursday"],
  "zone": 4
}, {
  "streetAddress": "538 W 47TH ST New York NY ",
  "lat": "40.7634021",
  "long": "-73.9948352",
  "mtlocation": "Apartment Building",
  "start": ["8:00 PM", "8:00 PM", "8:00 PM"],
  "end": ["9:00 PM", "9:00 PM", "9:00 PM"],
  "group": "GRUPO BUENA VOLUNTAD",
  "type": ["Sp", "Sp", "Sp"],
  "spinterest": ["null", "null", "null"],
  "wheelchair": false,
  "day": ["Monday", "Wednesday", "Friday"],
  "zone": 4
}, {
  "streetAddress": "1000 TENTH AVE New York NY ",
  "lat": "40.7700536177104",
  "long": "-73.9877635987168",
  "mtlocation": "Mount Sinai - Roosevelt Hospital",
  "start": ["7:30 PM", "7:30 PM"],
  "end": ["8:30 PM", "8:30 PM"],
  "group": "HELL''S KITCHEN",
  "type": ["OD", "C"],
  "spinterest": ["null", "null"],
  "wheelchair": true,
  "day": ["Monday", "Thursday"],
  "zone": 4
}, {
  "streetAddress": "303 W 42ND ST New York NY ",
  "lat": "40.7575385",
  "long": "-73.9901368",
  "mtlocation": null,
  "start": ["7:30 PM"],
  "end": ["8:30 PM"],
  "group": "HENRY HUDSON",
  "type": ["BB"],
  "spinterest": ["null"],
  "wheelchair": false,
  "day": ["Tuesday"],
  "zone": 4
}, {
  "streetAddress": "252 W 46TH ST New York NY ",
  "lat": "40.7593831",
  "long": "-73.9872329",
  "mtlocation": "46th Street Club House",
  "start": ["9:15 PM"],
  "end": ["10:15 PM"],
  "group": "JOE AND CHARLIE CD MEETING",
  "type": ["B"],
  "spinterest": ["null"],
  "wheelchair": false,
  "day": ["Monday"],
  "zone": 4
}, {
  "streetAddress": "307 W 26TH ST New York NY ",
  "lat": "40.7474685",
  "long": "-73.9974137",
  "mtlocation": "Upright Citizens Brigade Theatre",
  "start": ["12:00 PM", "12:00 PM", "12:00 PM", "12:00 PM", "12:00 PM"],
  "end": ["1:00 PM", "1:00 PM", "1:00 PM", "1:00 PM", "1:00 PM"],
  "group": "LEARNING TO LIVE (:I)",
  "type": ["S", "C", "OD", "B", "BB"],
  "spinterest": ["null", "Promises", "null", "null", "null"],
  "wheelchair": false,
  "day": ["Wednesday", "Thursday", "Friday", "Monday", "Tuesday"],
  "zone": 4
}, {
  "streetAddress": "405 W 59TH ST New York NY ",
  "lat": "40.7697538",
  "long": "-73.9857965",
  "mtlocation": "St. Paul''s Episcopal Parish House",
  "start": ["1:00 PM"],
  "end": ["2:00 PM"],
  "group": "LUCKY ONES",
  "type": ["BB"],
  "spinterest": ["null"],
  "wheelchair": true,
  "day": ["Wednesday"],
  "zone": 4
}, {
  "streetAddress": "303 W 42ND ST New York NY ",
  "lat": "40.7575385",
  "long": "-73.9901368",
  "mtlocation": null,
  "start": ["12:00 AM", "12:00 AM", "12:00 AM", "12:00 AM", "12:00 AM", "12:00 AM", "12:00 AM"],
  "end": ["1:00 AM", "1:00 AM", "1:00 AM", "1:00 AM", "1:00 AM", "1:00 AM", "1:00 AM"],
  "group": "MIDNIGHT IN MIDTOWN",
  "type": ["S", "C", "BB", "C", "C", "B", "O"],
  "spinterest": ["null", "null", "null", "Living Sober", "null", "null", "Eleventh Step"],
  "wheelchair": false,
  "day": ["Sunday", "Monday", "Tuesday", "Wednesday", "Thursday", "Friday", "Saturday"],
  "zone": 4
}, {
  "streetAddress": "422 W 57TH ST New York NY ",
  "lat": "40.7682311",
  "long": "-73.9868768",
  "mtlocation": "Trinity Presbyterian Church",
  "start": ["7:00 PM"],
  "end": ["8:00 PM"],
  "group": "MIRACLE",
  "type": ["B"],
  "spinterest": ["null"],
  "wheelchair": true,
  "day": ["Monday"],
  "zone": 4
}, {
  "streetAddress": "133 W 46TH ST New York NY ",
  "lat": "40.6589343",
  "long": "-73.9348705",
  "mtlocation": "St. Mary the Virgin Church",
  "start": ["6:00 AM", "6:00 AM"],
  "end": ["7:00 AM", "7:00 AM"],
  "group": "MORNING CALL",
  "type": ["B", "S"],
  "spinterest": ["null", "null"],
  "wheelchair": false,
  "day": ["Thursday", "Tuesday"],
  "zone": 4
}, {
  "streetAddress": "133 W 46TH ST New York NY ",
  "lat": "40.6589343",
  "long": "-73.9348705",
  "mtlocation": "St. Mary the Virgin Church",
  "start": ["10:00 AM", "12:30 PM", "12:30 PM", "12:30 PM", "12:30 PM", "12:30 PM", "12:30 PM", "12:30 PM", "12:30 PM", "12:30 PM", "12:30 PM", "12:30 PM", "12:30 PM", "12:30 PM", "12:30 PM", "12:30 PM", "5:00 PM", "5:30 PM", "5:30 PM", "5:30 PM", "5:30 PM", "5:30 PM"],
  "end": ["11:00 AM", "1:30 PM", "1:30 PM", "1:30 PM", "1:30 PM", "1:30 PM", "1:30 PM", "1:30 PM", "1:30 PM", "1:30 PM", "1:30 PM", "1:30 PM", "1:30 PM", "1:30 PM", "1:30 PM", "1:30 PM", "6:00 PM", "6:30 PM", "6:30 PM", "6:30 PM", "6:30 PM", "6:30 PM"],
  "group": "NEW BUT WEST",
  "type": ["C", "B", "OD", "S", "C", "S", "B", "S", "C", "S", "B", "BB", "S", "B", "OD", "C", "C", "C", "B", "S", "BB", "OD"],
  "spinterest": ["null", "null", "null", "Steps 1-2-3", "Men", "null", "null", "null", "null", "null", "null", "null", "null", "null", "null", "Women", "null", "null", "null", "null", "null", "null"],
  "wheelchair": false,
  "day": ["Saturday", "Monday", "Monday", "Thursday", "Monday", "Thursday", "Tuesday", "Thursday", "Tuesday", "Tuesday", "Friday", "Friday", "Friday", "Wednesday", "Wednesday", "Wednesday", "Sunday", "Wednesday", "Monday", "Thursday", "Tuesday", "Friday"],
  "zone": 4
}, {
  "streetAddress": "303 W 42ND ST New York NY ",
  "lat": "40.7575385",
  "long": "-73.9901368",
  "mtlocation": null,
  "start": ["10:30 AM", "10:30 AM", "10:30 AM", "10:30 AM", "10:30 AM", "10:30 AM", "10:30 AM"],
  "end": ["11:30 AM", "11:30 AM", "11:30 AM", "11:30 AM", "11:30 AM", "11:30 AM", "11:30 AM"],
  "group": "NEW PHOENIX",
  "type": ["C", "C", "C", "C", "C", "C", "C"],
  "spinterest": ["null", "null", "null", "null", "null", "null", "null"],
  "wheelchair": false,
  "day": ["Sunday", "Monday", "Tuesday", "Wednesday", "Thursday", "Friday", "Saturday"],
  "zone": 4
}, {
  "streetAddress": "296 9TH AVE New York NY ",
  "lat": "40.7493539",
  "long": "-73.998973",
  "mtlocation": "Holy Apostles Church Rectory",
  "start": ["6:15 PM", "6:15 PM", "7:30 PM", "7:45 PM", "9:00 PM", "9:00 PM"],
  "end": ["7:15 PM", "7:15 PM", "8:45 PM", "8:45 PM", "10:00 PM", "10:00 PM"],
  "group": "NINTH AVENUE (:I)",
  "type": ["C", "B", "S", "C", "B", "O"],
  "spinterest": ["null", "null", "null", "null", "First Step Workshop", "null"],
  "wheelchair": false,
  "day": ["Wednesday", "Monday", "Wednesday", "Monday", "Wednesday", "Monday"],
  "zone": 4
}, {
  "streetAddress": "139 W 31ST ST New York NY ",
  "lat": "40.647412",
  "long": "-73.9480599",
  "mtlocation": "St. Francis of Assisi Center",
  "start": ["6:00 PM", "6:00 PM", "6:00 PM"],
  "end": ["7:30 PM", "7:30 PM", "7:30 PM"],
  "group": "NU GARDEN",
  "type": ["S", "OD", "OD"],
  "spinterest": ["null", "null", "null"],
  "wheelchair": false,
  "day": ["Sunday", "Thursday", "Saturday"],
  "zone": 4
}, {
  "streetAddress": "1 W 53RD ST New York NY ",
  "lat": "40.7608523",
  "long": "-73.9765938",
  "mtlocation": "St. Thomas Church",
  "start": ["12:30 PM"],
  "end": ["1:30 PM"],
  "group": "PARK BENCH (:I)",
  "type": ["OD"],
  "spinterest": ["null"],
  "wheelchair": true,
  "day": ["Tuesday"],
  "zone": 4
}, {
  "streetAddress": "484 W 43RD ST New York NY ",
  "lat": "40.7599913",
  "long": "-73.9948326",
  "mtlocation": "Manhattan Plaza Health Club",
  "start": ["7:00 PM", "7:00 PM", "7:00 PM", "7:00 PM", "7:00 PM"],
  "end": ["8:00 PM", "8:00 PM", "8:00 PM", "8:00 PM", "8:00 PM"],
  "group": "POWERLESS",
  "type": ["C", "BB", "S", "B", "C"],
  "spinterest": ["Promises", "null", "null", "null", "Living Sober"],
  "wheelchair": true,
  "day": ["Saturday", "Monday", "Tuesday", "Thursday", "Friday"],
  "zone": 4
}, {
  "streetAddress": "7 W 55TH ST New York NY ",
  "lat": "40.7618823",
  "long": "-73.9751297",
  "mtlocation": "Fifth Av Presbyterian Church",
  "start": ["12:30 PM"],
  "end": ["1:30 PM"],
  "group": "PROMISES",
  "type": ["OD"],
  "spinterest": ["null"],
  "wheelchair": true,
  "day": ["Friday"],
  "zone": 4
}, {
  "streetAddress": "252 W 46TH ST New York NY ",
  "lat": "40.7593831",
  "long": "-73.9872329",
  "mtlocation": "46th Street Club House",
  "start": ["9:15 PM"],
  "end": ["10:15 PM"],
  "group": "PROMISES",
  "type": ["S"],
  "spinterest": ["null"],
  "wheelchair": false,
  "day": ["Thursday"],
  "zone": 4
}, {
  "streetAddress": "252 W 46TH ST New York NY ",
  "lat": "40.7593831",
  "long": "-73.9872329",
  "mtlocation": "46th Street Club House",
  "start": ["5:30 PM", "5:30 PM", "5:30 PM", "5:30 PM", "5:30 PM", "5:30 PM", "5:30 PM", "6:45 PM", "6:45 PM", "6:45 PM", "6:45 PM", "6:45 PM", "6:45 PM", "6:45 PM", "8:00 PM", "8:00 PM", "8:00 PM", "8:00 PM", "8:00 PM", "8:00 PM", "8:00 PM"],
  "end": ["6:30 PM", "6:30 PM", "6:30 PM", "6:30 PM", "6:30 PM", "6:30 PM", "6:30 PM", "7:45 PM", "7:45 PM", "7:45 PM", "7:45 PM", "7:45 PM", "7:45 PM", "7:45 PM", "9:00 PM", "9:00 PM", "9:00 PM", "9:00 PM", "9:00 PM", "9:00 PM", "9:00 PM"],
  "group": "RAINBOW ROOM",
  "type": ["C", "C", "S", "C", "C", "C", "C", "B", "OD", "C", "OD", "OD", "OD", "OD", "BB", "O", "BB", "O", "O", "S", "C"],
  "spinterest": ["Gay, Lesbian and Bisexual", "Gay, Lesbian and Bisexual", "Gay, Lesbian and Bisexual", "Gay, Lesbian and Bisexual", "Gay, Lesbian and Bisexual", "Gay, Lesbian and Bisexual", "Gay, Lesbian and Bisexual", "Gay, Lesbian and Bisexual", "Gay, Lesbian and Bisexual", "Gay, Lesbian and Bisexual", "Gay, Lesbian and Bisexual", "Gay, Lesbian and Bisexual", "Gay, Lesbian and Bisexual", "H.I.V Positive", "Gay, Lesbian and Bisexual", "Gay, Lesbian and Bisexual", "Gay, Lesbian and Bisexual", "Gay, Lesbian and Bisexual", "Gay, Lesbian and Bisexual", "Gay, Lesbian and Bisexual", "Gay, Lesbian and Bisexual"],
  "wheelchair": false,
  "day": ["Saturday", "Wednesday", "Sunday", "Thursday", "Monday", "Friday", "Tuesday", "Saturday", "Wednesday", "Sunday", "Monday", "Friday", "Tuesday", "Thursday", "Tuesday", "Saturday", "Sunday", "Thursday", "Monday", "Friday", "Wednesday"],
  "zone": 4
}, {
  "streetAddress": "4 W 43RD ST New York NY ",
  "lat": "40.7543885",
  "long": "-73.9812083",
  "mtlocation": "The Learning Center",
  "start": ["12:30 AM", "12:30 PM", "12:30 PM", "12:30 PM", "12:30 PM"],
  "end": ["1:30 PM", "1:30 PM", "1:30 PM", "1:30 PM", "1:30 PM"],
  "group": "RENAISSANCE",
  "type": ["C", "C", "S", "B", "C"],
  "spinterest": ["null", "null", "null", "null", "null"],
  "wheelchair": true,
  "day": ["Monday", "Tuesday", "Wednesday", "Thursday", "Friday"],
  "zone": 4
}, {
  "streetAddress": "252 W 46TH ST New York NY ",
  "lat": "40.7593831",
  "long": "-73.9872329",
  "mtlocation": "46th Street Club House",
  "start": ["9:15 PM"],
  "end": ["10:15 PM"],
  "group": "SATURDAY ROTATING 12 STEP",
  "type": ["S"],
  "spinterest": ["null"],
  "wheelchair": false,
  "day": ["Saturday"],
  "zone": 4
}, {
  "streetAddress": "296 NINTH AVE New York NY ",
  "lat": "40.7493539",
  "long": "-73.998973",
  "mtlocation": "Church of The Holy Apostles",
  "start": ["6:30 PM"],
  "end": ["7:30 PM"],
  "group": "SPIRITUAL FRIDAYS",
  "type": ["OD"],
  "spinterest": ["Spiritual Workshop"],
  "wheelchair": false,
  "day": ["Friday"],
  "zone": 4
}, {
  "streetAddress": "1 W 53RD ST New York NY ",
  "lat": "40.7608523",
  "long": "-73.9765938",
  "mtlocation": "St. Thomas Church Parish House",
  "start": ["7:45 AM"],
  "end": ["8:45 AM"],
  "group": "ST. THOMAS A.M.",
  "type": ["C"],
  "spinterest": ["null"],
  "wheelchair": false,
  "day": ["Tuesday"],
  "zone": 4
}, {
  "streetAddress": "210 W 31ST ST New York NY ",
  "lat": "40.6560325",
  "long": "-73.9999704",
  "mtlocation": "St. John the Baptist Church",
  "start": ["12:00 PM", "12:00 PM"],
  "end": ["1:00 PM", "1:00 PM"],
  "group": "STATLER AT NOON",
  "type": ["C", "C"],
  "spinterest": ["null", "null"],
  "wheelchair": false,
  "day": ["Tuesday", "Thursday"],
  "zone": 4
}, {
  "streetAddress": "422 W 57TH ST New York NY ",
  "lat": "40.7682311",
  "long": "-73.9868768",
  "mtlocation": "Trinity Presbyterian Church",
  "start": ["7:00 PM"],
  "end": ["8:15 PM"],
  "group": "STEPS AND TRADITIONS ON WEDNESDAY",
  "type": ["S"],
  "spinterest": ["null"],
  "wheelchair": false,
  "day": ["Wednesday"],
  "zone": 4
}, {
  "streetAddress": "252 W 46TH ST New York NY ",
  "lat": "40.7593831",
  "long": "-73.9872329",
  "mtlocation": "46th Street Club House",
  "start": ["9:15 PM"],
  "end": ["10:15 PM"],
  "group": "SUNDAY NIGHT BEGINNERS",
  "type": ["B"],
  "spinterest": ["null"],
  "wheelchair": false,
  "day": ["Sunday"],
  "zone": 4
}, {
  "streetAddress": "134 W 29TH ST New York NY ",
  "lat": "40.7472463",
  "long": "-73.9917061",
  "mtlocation": null,
  "start": ["6:00 PM"],
  "end": ["7:00 PM"],
  "group": "TUESDAY SOBER AGNOSTICS",
  "type": ["OD"],
  "spinterest": ["Agnostic"],
  "wheelchair": true,
  "day": ["Tuesday"],
  "zone": 4
}, {
  "streetAddress": "1000 TENTH AVE New York NY ",
  "lat": "40.7700536177104",
  "long": "-73.9877635987168",
  "mtlocation": "Mount Sinai - Roosevelt Hospital",
  "start": ["7:30 PM"],
  "end": ["8:30 PM"],
  "group": "WEST 58th STREET STEP",
  "type": ["S"],
  "spinterest": ["null"],
  "wheelchair": true,
  "day": ["Friday"],
  "zone": 4
}, {
  "streetAddress": "446 W 33RD ST New York NY ",
  "lat": "40.753496",
  "long": "-73.9989428",
  "mtlocation": "GMHC",
  "start": ["6:30 PM"],
  "end": ["7:45 PM"],
  "group": "WOMEN OVER FORTY",
  "type": ["C"],
  "spinterest": ["Women"],
  "wheelchair": true,
  "day": ["Friday"],
  "zone": 4
}, {
  "streetAddress": "423 W 46TH ST New York NY ",
  "lat": "40.7614721",
  "long": "-73.9916406",
  "mtlocation": "St. Clements Church",
  "start": ["7:30 PM"],
  "end": ["8:30 PM"],
  "group": "YOUNG IN 164",
  "type": ["BB"],
  "spinterest": ["null"],
  "wheelchair": true,
  "day": ["Sunday"],
  "zone": 4
}, {
  "streetAddress": "252 W 46TH ST New York NY ",
  "lat": "40.7593831",
  "long": "-73.9872329",
  "mtlocation": "46th Street Club House",
  "start": ["9:15 PM"],
  "end": ["10:15 PM"],
  "group": "YOUNG PEOPLE''S MEETING",
  "type": ["BB"],
  "spinterest": ["Young People"],
  "wheelchair": false,
  "day": ["Friday"],
  "zone": 4
}]
